{
  "cities": [
    {
      "cityName": "Lisbon",
      "country": "Portugal",
      "emoji": "ðŸ‡µðŸ‡¹",
      "date": "2027-10-31T15:59:59.138Z",
      "notes": "My favorite city so far!",
      "position": {
        "lat": 38.727881642324164,
        "lng": -9.140900099907554
      },
      "id": 73930385
    },
    {
      "cityName": "Madrid",
      "country": "Spain",
      "emoji": "ðŸ‡ªðŸ‡¸",
      "date": "2027-07-15T08:22:53.976Z",
      "notes": "",
      "position": {
        "lat": 40.46635901755316,
        "lng": -3.7133789062500004
      },
      "id": 17806751
    },
    {
      "cityName": "Telouet",
      "country": "Morocco",
      "emoji": "ðŸ‡²ðŸ‡¦",
      "date": "2025-11-19T16:30:56.502Z",
      "notes": "sad",
      "position": {
        "lat": "31.18460913574325",
        "lng": "-7.053222656250001"
      },
      "id": 98443198
    },
    {
      "cityName": "Adis",
      "country": "Morocco",
      "emoji": "ðŸ‡²ðŸ‡¦",
      "date": "2025-11-19T16:33:22.670Z",
      "notes": "sdadas",
      "position": {
        "lat": "29.66896252599253",
        "lng": "-8.041992187500002"
      },
      "id": 98443199
    },
    {
      "cityName": "Tamezmoute",
      "country": "Morocco",
      "emoji": "ðŸ‡²ðŸ‡¦",
      "date": "2025-11-20T08:53:52.872Z",
      "notes": "a",
      "position": {
        "lat": "30.826780904779774",
        "lng": "-6.020507812500001"
      },
      "id": 98443202
    },
    {
      "cityName": "Bir El Hafey",
      "country": "Tunisia",
      "emoji": "ðŸ‡¹ðŸ‡³",
      "date": "2025-11-20T08:57:28.347Z",
      "notes": "",
      "position": {
        "lat": "34.97600151317588",
        "lng": "9.338378906250002"
      },
      "id": 98443203
    },
    {
      "cityName": "Rechaiga",
      "country": "Algeria",
      "emoji": "ðŸ‡©ðŸ‡¿",
      "date": "2025-11-20T09:01:20.023Z",
      "notes": "",
      "position": {
        "lat": "35.28150065789119",
        "lng": "2.2192382812500004"
      },
      "id": 98443204
    },
    {
      "cityName": "Sidi Abderrahmane",
      "country": "Algeria",
      "emoji": "ðŸ‡©ðŸ‡¿",
      "date": "2025-11-20T09:11:19.563Z",
      "notes": "",
      "position": {
        "lat": "34.72355492704221",
        "lng": "1.0327148437500002"
      },
      "id": 98443205
    }
  ]
}