{
  "cities": [
    {
      "cityName": "Lisbon",
      "country": "Portugal",
      "emoji": "ðŸ‡µðŸ‡¹",
      "date": "2027-10-31T15:59:59.138Z",
      "notes": "My favorite city so far!",
      "position": {
        "lat": 38.727881642324164,
        "lng": -9.140900099907554
      },
      "id": 73930385
    },
    {
      "cityName": "Madrid",
      "country": "Spain",
      "emoji": "ðŸ‡ªðŸ‡¸",
      "date": "2027-07-15T08:22:53.976Z",
      "notes": "",
      "position": {
        "lat": 40.46635901755316,
        "lng": -3.7133789062500004
      },
      "id": 17806751
    },
    {
      "cityName": "Berlin",
      "country": "Germany",
      "emoji": "ðŸ‡©ðŸ‡ª",
      "date": "2027-02-12T09:24:11.863Z",
      "notes": "Amazing ðŸ˜ƒ",
      "position": {
        "lat": 52.53586782505711,
        "lng": 13.376933665713324
      },
      "id": 98443197
    },
    {
      "cityName": "Telouet",
      "country": "Morocco",
      "emoji": "ðŸ‡²ðŸ‡¦",
      "date": "2025-11-19T16:30:56.502Z",
      "notes": "sad",
      "position": {
        "lat": "31.18460913574325",
        "lng": "-7.053222656250001"
      },
      "id": 98443198
    },
    {
      "cityName": "Adis",
      "country": "Morocco",
      "emoji": "ðŸ‡²ðŸ‡¦",
      "date": "2025-11-19T16:33:22.670Z",
      "notes": "sdadas",
      "position": {
        "lat": "29.66896252599253",
        "lng": "-8.041992187500002"
      },
      "id": 98443199
    },
    {
      "cityName": "Dar Bel Amri",
      "country": "Morocco",
      "emoji": "ðŸ‡²ðŸ‡¦",
      "date": "2025-11-19T16:33:42.793Z",
      "notes": "adsads",
      "position": {
        "lat": "34.19817309627726",
        "lng": "-6.04248046875"
      },
      "id": 98443200
    },
    {
      "cityName": "Boulanouare",
      "country": "Morocco",
      "emoji": "ðŸ‡²ðŸ‡¦",
      "date": "2025-11-19T16:35:09.089Z",
      "notes": "x",
      "position": {
        "lat": "32.879587173066305",
        "lng": "-6.767578125000001"
      },
      "id": 98443201
    },
    {
      "cityName": "Tadighoust",
      "country": "Morocco",
      "emoji": "ðŸ‡²ðŸ‡¦",
      "date": "2025-11-19T16:37:37.098Z",
      "notes": "dsa",
      "position": {
        "lat": "32.02670629333614",
        "lng": "-4.614257812500001"
      },
      "id": 98443202
    },
    {
      "cityName": "Jaafra",
      "country": "Morocco",
      "emoji": "ðŸ‡²ðŸ‡¦",
      "date": "2025-11-19T16:38:35.188Z",
      "notes": "",
      "position": {
        "lat": "32.287132632616384",
        "lng": "-7.822265625000001"
      },
      "id": 98443203
    }
  ]
}